{
  "museums": [
    {
      "id": "museum-nasional",
      "name": "Museum Nasional Indonesia",
      "category": "museum",
      "coordinates": [-6.1761, 106.8220],
      "address": "Jl. Medan Merdeka Barat No.12, Jakarta Pusat",
      "city": "Jakarta",
      "province": "DKI Jakarta",
      "region": "Jawa",
      "description": "Museum Nasional Indonesia atau Museum Gajah adalah museum yang menyimpan koleksi prasejarah, arkeologi, etnografi, dan numismatik terlengkap di Indonesia.",
      "images": [
        "https://images.unsplash.com/photo-1555528070-6f635f4c3b72?w=800&h=600&fit=crop&q=80",
        "https://images.unsplash.com/photo-1623842235038-e7359cee5daa?w=800&h=600&fit=crop&q=80"
      ],
      "hours": {
        "weekday": "08:00 - 16:00",
        "weekend": "08:00 - 17:00",
        "closed": "Senin"
      },
      "website": "https://www.museumnasional.or.id",
      "phone": "+62 21 3868172",
      "ticketPrice": {
        "domestic": "Rp 5.000",
        "foreign": "Rp 10.000"
      }
    },
    {
      "id": "borobudur",
      "name": "Candi Borobudur",
      "category": "heritage",
      "coordinates": [-7.6079, 110.2038],
      "address": "Jl. Badrawati, Borobudur, Magelang",
      "city": "Magelang",
      "province": "Jawa Tengah",
      "region": "Jawa",
      "description": "Candi Borobudur adalah candi Buddha terbesar di dunia dan merupakan salah satu situs warisan dunia UNESCO. Dibangun pada abad ke-8 dan ke-9 di bawah dinasti Syailendra.",
      "images": [
        "https://images.unsplash.com/photo-1591332748764-35e2b62a1ed9?w=800&h=600&fit=crop&q=80",
        "https://images.unsplash.com/photo-1601107410321-c4babf28f200?w=800&h=600&fit=crop&q=80",
        "https://images.unsplash.com/photo-1568849676085-51415703900f?w=800&h=600&fit=crop&q=80"
      ],
      "hours": {
        "weekday": "06:30 - 17:00",
        "weekend": "06:30 - 17:00",
        "closed": "-"
      },
      "website": "https://borobudurpark.com",
      "phone": "+62 293 788266",
      "ticketPrice": {
        "domestic": "Rp 50.000",
        "foreign": "$25"
      }
    },
    {
      "id": "prambanan",
      "name": "Candi Prambanan",
      "category": "heritage",
      "coordinates": [-7.7520, 110.4915],
      "address": "Jl. Raya Solo - Yogyakarta, Prambanan",
      "city": "Sleman",
      "province": "DI Yogyakarta",
      "region": "Jawa",
      "description": "Candi Prambanan adalah kompleks candi Hindu terbesar di Indonesia yang dibangun pada abad ke-9. Merupakan situs warisan dunia UNESCO.",
      "images": [
        "https://images.unsplash.com/photo-1596422846543-75c6fc197f07?w=800&h=600&fit=crop&q=80",
        "https://images.unsplash.com/photo-1601107410320-f054ca5133f9?w=800&h=600&fit=crop&q=80"
      ],
      "hours": {
        "weekday": "06:00 - 17:30",
        "weekend": "06:00 - 17:30",
        "closed": "-"
      },
      "website": "https://prambanan.id",
      "phone": "+62 274 496401",
      "ticketPrice": {
        "domestic": "Rp 50.000",
        "foreign": "$25"
      }
    },
    {
      "id": "museum-sri-baduga",
      "name": "Museum Sri Baduga",
      "category": "museum",
      "coordinates": [-6.9148, 107.6098],
      "address": "Jl. BKR No.185, Bandung",
      "city": "Bandung",
      "province": "Jawa Barat",
      "region": "Jawa",
      "description": "Museum Sri Baduga adalah museum yang menyimpan koleksi budaya Sunda, termasuk wayang golek, alat musik tradisional, dan artefak sejarah Kerajaan Pajajaran.",
      "images": [
        "https://images.unsplash.com/photo-1583417319070-4a69db38a482?w=800&h=600&fit=crop&q=80",
        "https://images.unsplash.com/photo-1619458451683-7fe8c73ffbd6?w=800&h=600&fit=crop&q=80"
      ],
      "hours": {
        "weekday": "08:00 - 16:00",
        "weekend": "08:00 - 16:00",
        "closed": "Senin"
      },
      "website": "https://www.sribadugamuseum.com",
      "phone": "+62 22 5200980",
      "ticketPrice": {
        "domestic": "Rp 3.000",
        "foreign": "Rp 10.000"
      }
    },
    {
      "id": "museum-bali",
      "name": "Museum Bali",
      "category": "museum",
      "coordinates": [-8.6570, 115.2164],
      "address": "Jl. Mayor Wisnu No.1, Denpasar",
      "city": "Denpasar",
      "province": "Bali",
      "region": "Bali-Nusa Tenggara",
      "description": "Museum Bali menyimpan koleksi seni dan budaya Bali dari prasejarah hingga modern, termasuk patung, lukisan, tekstil, dan peralatan upacara.",
      "images": [
        "https://images.unsplash.com/photo-1559628376-f3fe5f782a2e?w=800&h=600&fit=crop&q=80",
        "https://images.unsplash.com/photo-1604478974654-c6076c7e4398?w=800&h=600&fit=crop&q=80"
      ],
      "hours": {
        "weekday": "08:00 - 15:30",
        "weekend": "08:00 - 15:30",
        "closed": "Hari Raya Nyepi"
      },
      "website": "https://museumbali.id",
      "phone": "+62 361 222680",
      "ticketPrice": {
        "domestic": "Rp 50.000",
        "foreign": "Rp 100.000"
      }
    },
    {
      "id": "taman-mini",
      "name": "Taman Mini Indonesia Indah",
      "category": "cultural-park",
      "coordinates": [-6.3025, 106.8950],
      "address": "Jl. Raya Taman Mini, Jakarta Timur",
      "city": "Jakarta",
      "province": "DKI Jakarta",
      "region": "Jawa",
      "description": "Taman Mini Indonesia Indah adalah taman budaya yang menampilkan miniatur arsitektur tradisional dari 34 provinsi di Indonesia serta berbagai museum.",
      "images": [
        "https://images.unsplash.com/photo-1613395877133-f96b94481429?w=800&h=600&fit=crop&q=80",
        "https://images.unsplash.com/photo-1555400113-d6b8d3f9dffd?w=800&h=600&fit=crop&q=80",
        "https://images.unsplash.com/photo-1605640840605-14ac1855827b?w=800&h=600&fit=crop&q=80"
      ],
      "hours": {
        "weekday": "07:00 - 21:00",
        "weekend": "07:00 - 21:00",
        "closed": "-"
      },
      "website": "https://www.tamanmini.com",
      "phone": "+62 21 8779214",
      "ticketPrice": {
        "domestic": "Rp 25.000",
        "foreign": "Rp 50.000"
      }
    },
    {
      "id": "museum-aceh",
      "name": "Museum Aceh",
      "category": "museum",
      "coordinates": [5.5483, 95.3238],
      "address": "Jl. Sultan Alaidin Mahmudsyah No.10, Banda Aceh",
      "city": "Banda Aceh",
      "province": "Aceh",
      "region": "Sumatera",
      "description": "Museum Aceh adalah museum yang menyimpan koleksi sejarah dan budaya Aceh, termasuk artefak Kerajaan Aceh dan peninggalan tsunami 2004.",
      "images": [
        "https://images.unsplash.com/photo-1598969636049-e5e0c6ca6172?w=800&h=600&fit=crop&q=80",
        "https://images.unsplash.com/photo-1565967582330-66031e22a271?w=800&h=600&fit=crop&q=80"
      ],
      "hours": {
        "weekday": "08:00 - 12:00, 14:00 - 16:00",
        "weekend": "08:00 - 12:00",
        "closed": "Senin, Hari Libur Nasional"
      },
      "website": "https://museumaceh.id",
      "phone": "+62 651 22795",
      "ticketPrice": {
        "domestic": "Rp 3.000",
        "foreign": "Rp 10.000"
      }
    },
    {
      "id": "rumah-gadang-museum",
      "name": "Museum Adityawarman",
      "category": "museum",
      "coordinates": [-0.9170, 100.3640],
      "address": "Jl. Diponegoro No.10, Padang",
      "city": "Padang",
      "province": "Sumatera Barat",
      "region": "Sumatera",
      "description": "Museum Adityawarman berbentuk Rumah Gadang dan menyimpan koleksi budaya Minangkabau, termasuk tekstil, senjata tradisional, dan peralatan upacara adat.",
      "images": [
        "https://images.unsplash.com/photo-1580656449116-43a6e01f48db?w=800&h=600&fit=crop&q=80",
        "https://images.unsplash.com/photo-1609137144813-7d9921338f24?w=800&h=600&fit=crop&q=80"
      ],
      "hours": {
        "weekday": "08:00 - 16:00",
        "weekend": "08:00 - 16:00",
        "closed": "Senin"
      },
      "website": "https://museumadityawarman.id",
      "phone": "+62 751 33549",
      "ticketPrice": {
        "domestic": "Rp 5.000",
        "foreign": "Rp 10.000"
      }
    },
    {
      "id": "museum-kalimantan-barat",
      "name": "Museum Kalimantan Barat",
      "category": "museum",
      "coordinates": [-0.0263, 109.3425],
      "address": "Jl. Jenderal Ahmad Yani, Pontianak",
      "city": "Pontianak",
      "province": "Kalimantan Barat",
      "region": "Kalimantan",
      "description": "Museum yang menyimpan koleksi budaya Dayak dan sejarah Kalimantan Barat, termasuk mandau, peralatan berburu, dan keramik kuno.",
      "images": [
        "https://images.unsplash.com/photo-1566351074776-0f5d4f6675f2?w=800&h=600&fit=crop&q=80",
        "https://images.unsplash.com/photo-1598274625650-d3d63f9e67b6?w=800&h=600&fit=crop&q=80"
      ],
      "hours": {
        "weekday": "08:00 - 15:00",
        "weekend": "08:00 - 14:00",
        "closed": "Senin"
      },
      "website": "https://museumkalbar.id",
      "phone": "+62 561 736251",
      "ticketPrice": {
        "domestic": "Rp 2.000",
        "foreign": "Rp 5.000"
      }
    },
    {
      "id": "museum-sulawesi-utara",
      "name": "Museum Negeri Sulawesi Utara",
      "category": "museum",
      "coordinates": [1.4748, 124.8421],
      "address": "Jl. W.R. Supratman, Manado",
      "city": "Manado",
      "province": "Sulawesi Utara",
      "region": "Sulawesi",
      "description": "Museum yang menampilkan koleksi budaya Minahasa dan Sulawesi Utara, termasuk waruga (sarcophagus batu), tekstil, dan peralatan tradisional.",
      "images": [
        "https://images.unsplash.com/photo-1569155011131-46f2e7a87531?w=800&h=600&fit=crop&q=80",
        "https://images.unsplash.com/photo-1605640840605-14ac1855827b?w=800&h=600&fit=crop&q=80"
      ],
      "hours": {
        "weekday": "08:00 - 14:00",
        "weekend": "08:00 - 14:00",
        "closed": "Senin"
      },
      "website": "https://museumsulut.id",
      "phone": "+62 431 862359",
      "ticketPrice": {
        "domestic": "Rp 3.000",
        "foreign": "Rp 10.000"
      }
    },
    {
      "id": "museum-papua",
      "name": "Museum Loka Budaya Papua",
      "category": "museum",
      "coordinates": [-2.5920, 140.6721],
      "address": "Jl. Raya Abepura, Jayapura",
      "city": "Jayapura",
      "province": "Papua",
      "region": "Papua-Maluku",
      "description": "Museum yang menyimpan koleksi budaya Papua, termasuk ukiran asmat, koteka, peralatan berburu, dan alat musik tradisional.",
      "images": [
        "https://images.unsplash.com/photo-1589797025261-7b3b68d20b32?w=800&h=600&fit=crop&q=80",
        "https://images.unsplash.com/photo-1608632057382-95bb3a6b5f64?w=800&h=600&fit=crop&q=80"
      ],
      "hours": {
        "weekday": "08:00 - 15:00",
        "weekend": "08:00 - 14:00",
        "closed": "Senin"
      },
      "website": "https://museumlbp.id",
      "phone": "+62 967 585489",
      "ticketPrice": {
        "domestic": "Rp 5.000",
        "foreign": "Rp 10.000"
      }
    },
    {
      "id": "museum-tekstil",
      "name": "Museum Tekstil",
      "category": "museum",
      "coordinates": [-6.1872, 106.8137],
      "address": "Jl. KS Tubun No.2-4, Jakarta Pusat",
      "city": "Jakarta",
      "province": "DKI Jakarta",
      "region": "Jawa",
      "description": "Museum yang menampilkan koleksi tekstil tradisional Indonesia dari berbagai daerah, termasuk batik, songket, tenun ikat, dan ulos.",
      "images": [
        "https://images.unsplash.com/photo-1610701669880-5d88c6c4a7f7?w=800&h=600&fit=crop&q=80",
        "https://images.unsplash.com/photo-1627544818722-b6c5c5cd8faa?w=800&h=600&fit=crop&q=80"
      ],
      "hours": {
        "weekday": "09:00 - 15:00",
        "weekend": "09:00 - 15:00",
        "closed": "Senin, Hari Libur Nasional"
      },
      "website": "https://museumtekstiljakarta.com",
      "phone": "+62 21 5603751",
      "ticketPrice": {
        "domestic": "Rp 5.000",
        "foreign": "Rp 10.000"
      }
    },
    {
      "id": "sangiran",
      "name": "Museum Sangiran",
      "category": "heritage",
      "coordinates": [-7.4340, 110.8300],
      "address": "Krikilan, Kalijambe, Sragen",
      "city": "Sragen",
      "province": "Jawa Tengah",
      "region": "Jawa",
      "description": "Museum Sangiran adalah situs prasejarah yang menyimpan fosil manusia purba dan merupakan salah satu situs warisan dunia UNESCO.",
      "images": [
        "https://images.unsplash.com/photo-1578662996442-48f60103fc96?w=800&h=600&fit=crop&q=80",
        "https://images.unsplash.com/photo-1582893986361-0b0f5c5e5e5b?w=800&h=600&fit=crop&q=80"
      ],
      "hours": {
        "weekday": "08:00 - 16:00",
        "weekend": "08:00 - 16:00",
        "closed": "Senin"
      },
      "website": "https://sangiran.id",
      "phone": "+62 271 6811050",
      "ticketPrice": {
        "domestic": "Rp 7.500",
        "foreign": "Rp 15.000"
      }
    },
    {
      "id": "museum-wayang",
      "name": "Museum Wayang",
      "category": "museum",
      "coordinates": [-6.1355, 106.8133],
      "address": "Jl. Pintu Besar Utara No.27, Jakarta Barat",
      "city": "Jakarta",
      "province": "DKI Jakarta",
      "region": "Jawa",
      "description": "Museum Wayang menyimpan koleksi wayang dari berbagai daerah di Indonesia dan mancanegara, termasuk wayang kulit, wayang golek, dan wayang beber.",
      "images": [
        "https://images.unsplash.com/photo-1578632292335-df3abbb0d586?w=800&h=600&fit=crop&q=80",
        "https://images.unsplash.com/photo-1626436890-27b8c84cccbb?w=800&h=600&fit=crop&q=80"
      ],
      "hours": {
        "weekday": "09:00 - 15:00",
        "weekend": "09:00 - 15:00",
        "closed": "Senin"
      },
      "website": "https://www.museumwayang.com",
      "phone": "+62 21 6929560",
      "ticketPrice": {
        "domestic": "Rp 5.000",
        "foreign": "Rp 10.000"
      }
    },
    {
      "id": "ratu-boko",
      "name": "Situs Ratu Boko",
      "category": "heritage",
      "coordinates": [-7.7705, 110.4892],
      "address": "Ratu Boko, Prambanan, Sleman",
      "city": "Sleman",
      "province": "DI Yogyakarta",
      "region": "Jawa",
      "description": "Situs Ratu Boko adalah kompleks keraton yang dibangun pada abad ke-8, menawarkan pemandangan sunset spektakuler dan reruntuhan istana kuno.",
      "images": [
        "https://images.unsplash.com/photo-1585159812596-fbb8ba62cd8a?w=800&h=600&fit=crop&q=80",
        "https://images.unsplash.com/photo-1598968747437-b346fb7c2b63?w=800&h=600&fit=crop&q=80"
      ],
      "hours": {
        "weekday": "06:00 - 17:30",
        "weekend": "06:00 - 17:30",
        "closed": "-"
      },
      "website": "https://borobudurpark.com/candi/ratu-boko",
      "phone": "+62 274 496401",
      "ticketPrice": {
        "domestic": "Rp 40.000",
        "foreign": "$15"
      }
    }
  ]
}
